{
  "type": "FeatureCollection",
  "features": [
    {
      "type": "Feature",
      "properties": {
        "title": "כניסה לאתר",
        "color": "black",
        "vimeo": "48169157",
        "image": "./data/img/masada_entrance.jpg"
      },
      "geometry": {
        "type": "Point",
        "coordinates": [
          35.363101959228516,
          31.312068353075837
        ]
      }
    },
    {
      "type": "Feature",
      "properties": {
        "title": "עולים בשביל הנחש",
        "rotation": 45,
        "vimeo": "134929132",
        "image": "./data/img/snake_trail.jpg"
      },
      "geometry": {
        "type": "Point",
        "coordinates": [
          35.3594970703125,
          31.313681585967647
        ]
      }
    },
    {
      "type": "Feature",
      "properties": {
        "title": "מגורי מפקד המשמר",
        "rotation": 90,
        "vimeo": "5922384",
        "image": "./data/img/mishmar.jpg"
      },
      "geometry": {
        "type": "Point",
        "coordinates": [
          35.3554630279541,
          31.316394688062093
        ]
      }
    },
    {
      "type": "Feature",
      "properties": {
        "title": "הארמון הצפוני",
        "rotation": 0,
        "vimeo": "191039746",
        "image": "./data/img/north_palace.jpg"
      },
      "geometry": {
        "type": "Point",
        "coordinates": [
          35.3543472290039,
          31.31866776747872
        ]
      }
    },
    {
      "type": "Feature",
      "properties": {
        "title": "בית הכנסת",
        "rotation": 270,
        "vimeo": "104030094",
        "image": "./data/img/synagogue.jpg"
      },
      "geometry": {
        "type": "Point",
        "coordinates": [
          35.35305976867676,
          31.315881404471327
        ]
      }
    },
    {
      "type": "Feature",
      "properties": {
        "title": " בריכת השחיה",
        "rotation": 180,
        "vimeo": "11753317",
        "image": "./data/img/pool.jpg"
      },
      "geometry": {
        "type": "Point",
        "coordinates": [
          35.35400390625,
          31.31448819205171
        ]
      }
    }
  ]
}